distribution_center,name,demand,latitude,longitude
1,Toffee Town,973,49.27,-122.21
2,Mallow Melt Mountains,805,46.82,-97.83
3,Sherbet Shoreline,521,25.36,-99.09
4,Vanilla Chai Vortex,550,40.47,-102.52
5,Lollipop Lagoon,707,48.33,-104.71
6,Pixie Stix Plateau,959,27.33,-79.3
