Stores,lat,long
Butter Rum Reef,39.16,-116.43
Candyfloss Countryside,38.73,-98.77
Gumdrops Grove,41.21,-110.26
Maple Fudge Forest,42.72,-109.84
Marshmallow Meadows,41.93,-92.69
Peanut Butter Parlor,44.93,-118.45
Popping Candy Plains,43.46,-103.69
Swedish Fish Shores,36.66,-97.55
